[
  {
    "stop_id": 1,
    "stop_name": "State Bank Mangalore",
    "latitude": 12.8593,
    "longitude": 74.8429
  },
  {
    "stop_id": 2,
    "stop_name": "Hampankatta",
    "latitude": 12.8722,
    "longitude": 74.8385
  },
  {
    "stop_id": 3,
    "stop_name": "PVS Circle",
    "latitude": 12.8744,
    "longitude": 74.8426
  },
  {
    "stop_id": 4,
    "stop_name": "Lalbagh",
    "latitude": 12.8663,
    "longitude": 74.8417
  },
  {
    "stop_id": 5,
    "stop_name": "Ladyhill",
    "latitude": 12.8636,
    "longitude": 74.8465
  },
  {
    "stop_id": 6,
    "stop_name": "Kottara Chowki",
    "latitude": 12.8602,
    "longitude": 74.8514
  },
  {
    "stop_id": 7,
    "stop_name": "Kuloor Bridge",
    "latitude": 12.8557,
    "longitude": 74.8558
  },
  {
    "stop_id": 8,
    "stop_name": "Panambur",
    "latitude": 12.8749,
    "longitude": 74.8732
  },
  {
    "stop_id": 9,
    "stop_name": "Surathkal Bus Stand",
    "latitude": 12.9165,
    "longitude": 74.8627
  },
  {
    "stop_id": 10,
    "stop_name": "Haleyangadi",
    "latitude": 13.0053,
    "longitude": 74.8284
  },
  {
    "stop_id": 11,
    "stop_name": "Mulki",
    "latitude": 13.0677,
    "longitude": 74.8179
  },
  {
    "stop_id": 12,
    "stop_name": "Kaup",
    "latitude": 13.1182,
    "longitude": 74.8309
  },
  {
    "stop_id": 13,
    "stop_name": "Nandhi Koor",
    "latitude": 13.1628,
    "longitude": 74.8412
  },
  {
    "stop_id": 14,
    "stop_name": "Padubidri Junction",
    "latitude": 13.1919,
    "longitude": 74.8486
  },
  {
    "stop_id": 15,
    "stop_name": "Mani",
    "latitude": 13.2031,
    "longitude": 74.8600
  },
  {
    "stop_id": 16,
    "stop_name": "Mudarangadi",
    "latitude": 13.2235,
    "longitude": 74.8669
  },
  {
    "stop_id": 17,
    "stop_name": "Manjarpalke",
    "latitude": 13.2446,
    "longitude": 74.8830
  },
  {
    "stop_id": 18,
    "stop_name": "Belmann Market",
    "latitude": 13.2591,
    "longitude": 74.8978
  },
  {
    "stop_id": 19,
    "stop_name": "Karkala Bus Stand",
    "latitude": 13.3109,
    "longitude": 74.9211
  },
  {
    "stop_id": 20,
    "stop_name": "Nitte Bus Stand",
    "latitude": 13.3457,
    "longitude": 74.9413
  },
  {
    "stop_id": 21,
    "stop_name": "NMAMIT Nitte College Gate",
    "latitude": 13.3615,
    "longitude": 74.9496
  }
]
